,City ID,City Name,Country,Latitude,Longitude,Temperature (F),Humidity (%),Cloudiness (%),Wind (mph)
0,3833367,Ushuaia,AR,-54.8,-68.3,32.0,94,90,24.16
1,2206939,Bluff,NZ,-46.6,168.33,50.95,79,100,17.05
2,2074865,Carnarvon,AU,-24.87,113.63,73.4,27,0,8.05
3,5282297,Bethel,US,41.37,-73.41,70.9,88,1,4.7
4,3530691,Chunhuhub,MX,19.55,-88.68,80.38,81,100,5.3
5,3430863,Mar del Plata,AR,-38.0,-57.56,41.52,73,40,14.99
6,546105,Nikolskoye,RU,59.7,30.79,53.19,87,75,6.71
7,5882953,Aklavik,CA,68.22,-135.01,68.0,42,75,6.93
8,2155415,New Norfolk,AU,-42.78,147.06,50.16,78,100,2.01
9,4030556,Rikitea,PF,-23.12,-134.97,68.5,76,0,19.46
10,3874787,Punta Arenas,CL,-53.15,-70.92,35.29,91,100,12.75
11,2075265,Busselton,AU,-33.65,115.33,60.03,51,98,21.21
12,4032243,Vaini,TO,-21.2,-175.2,75.2,83,75,12.75
13,3450909,Rondonópolis,BR,-16.47,-54.64,70.52,39,32,2.42
14,6201424,Mataura,NZ,-46.19,168.86,49.51,83,100,7.45
15,933995,Souillac,MU,-20.52,57.52,68.0,52,75,18.34
16,2126123,Chokurdakh,RU,70.63,147.92,80.13,37,51,5.01
17,2638520,Sanquhar,GB,55.37,-3.92,59.0,93,75,6.93
18,2645826,Kendal,GB,54.33,-2.75,60.98,95,100,1.99
19,3466704,Castro,BR,-24.79,-50.01,55.38,75,0,4.5
20,5106841,Albany,US,42.6,-73.97,71.24,69,0,1.97
21,2457161,Gao,ML,16.64,1.64,85.78,56,100,15.1
22,2358382,Léo,BF,11.1,-2.1,72.07,92,56,7.94
23,56335,Giohar,SO,2.78,45.5,73.49,77,87,13.82
24,3372707,Ribeira Grande,PT,38.52,-28.7,69.94,76,0,7.61
25,964432,Port Alfred,ZA,-33.59,26.89,66.69,26,0,13.11
26,2630299,Hofn,IS,64.25,-15.21,49.32,64,100,13.44
27,2121385,Severo-Kuril'sk,RU,50.68,156.12,53.82,77,100,7.38
28,3356832,Henties Bay,NA,-22.12,14.28,66.0,23,0,1.01
29,2654092,Caernarfon,GB,53.14,-4.27,59.29,93,100,19.46
30,2335204,Kano,NG,12.0,8.52,73.4,94,80,5.82
31,2264557,Ponta do Sol,PT,32.67,-17.1,66.47,59,0,4.47
32,1701394,Manuk Mangkaw,PH,4.8,119.85,82.98,70,62,4.09
33,2729907,Longyearbyen,SJ,78.22,15.64,54.66,78,0,5.68
34,2126710,Beringovskiy,RU,63.05,179.32,53.55,69,98,7.78
35,3985710,Cabo San Lucas,MX,22.89,-109.91,82.27,73,5,17.22
36,2163355,Hobart,AU,-42.88,147.33,53.35,57,75,10.29
37,2110227,Butaritari,KI,3.07,172.79,83.14,75,44,18.88
38,3461638,Iaçu,BR,-12.77,-40.21,64.51,87,2,2.95
39,509401,Pirogovo,RU,56.78,53.15,60.01,98,86,1.99
40,1507390,Dikson,RU,73.51,80.55,41.81,96,100,15.82
41,5746545,Portland,US,45.52,-122.68,67.33,46,20,8.05
42,3369157,Cape Town,ZA,-33.93,18.42,49.01,66,0,5.82
43,779683,Hammerfest,NO,70.66,23.68,60.8,87,0,21.92
44,5983720,Iqaluit,CA,63.75,-68.51,44.29,87,75,2.24
45,5924351,Clyde River,CA,70.47,-68.59,42.8,93,40,5.82
46,2108502,Honiara,SB,-9.43,159.95,84.2,74,75,14.99
47,3382160,Cayenne,GF,4.93,-52.33,78.8,88,94,8.61
48,4035715,Avarua,CK,-21.21,-159.78,73.4,73,100,8.05
49,1282256,Hithadhoo,MV,-0.6,73.08,79.02,82,100,11.72
50,2262987,Sertã,PT,39.81,-8.1,62.82,85,4,1.01
51,5848280,Kapaa,US,22.08,-159.32,81.72,74,20,18.34
52,6170031,Tuktoyaktuk,CA,69.45,-133.04,62.6,63,75,4.7
53,3366880,Hermanus,ZA,-34.42,19.23,59.0,48,0,3.0
54,933535,Letlhakane,BW,-21.42,25.58,48.33,77,0,9.98
55,6167817,Torbay,CA,47.67,-52.73,54.81,100,90,5.82
56,2179825,Waitati,NZ,-45.75,170.57,52.0,60,100,8.01
57,5666176,Miles City,US,46.41,-105.84,89.6,22,1,5.82
58,3355672,Lüderitz,NA,-26.65,15.16,64.4,27,0,3.36
59,2150163,Sawtell,AU,-30.38,153.1,59.74,87,90,5.82
60,5122534,Jamestown,US,42.1,-79.24,70.29,83,75,6.93
61,5855927,Hilo,US,19.73,-155.09,73.6,78,90,6.58
62,1633419,Padang,ID,-0.95,100.35,82.31,71,100,1.7
63,3647444,Calabozo,VE,8.92,-67.43,74.5,95,85,3.58
64,7601762,Bairiki Village,KI,1.33,172.98,87.8,70,40,11.41
65,4026082,Lázaro Cárdenas,MX,17.96,-102.2,81.19,78,12,5.03
66,5546220,Saint George,US,37.1,-113.58,91.51,26,1,12.75
67,3354540,Omaruru,NA,-21.43,15.93,48.63,50,0,10.0
68,6620339,Karratha,AU,-20.74,116.85,74.43,32,0,20.09
69,3441890,Departamento de Maldonado,UY,-34.67,-54.92,45.14,81,75,6.93
70,3372964,Lagoa,PT,39.05,-27.98,69.78,81,0,11.88
71,544084,Koslan,RU,63.46,48.9,59.9,83,97,1.52
72,3386177,Trairi,BR,-3.28,-39.27,76.93,84,18,9.1
73,5856516,‘Āhuimanu,US,21.44,-157.84,83.98,62,40,13.87
74,1263752,Māngrol,IN,21.12,70.12,83.57,78,100,9.73
75,1015776,Bredasdorp,ZA,-34.53,20.04,42.8,93,0,5.82
76,3981391,Tomatlán,MX,19.93,-105.25,78.69,81,100,3.15
77,2125693,Evensk,RU,61.95,159.23,60.66,68,0,10.94
78,2020311,Mamakan,RU,57.82,114.0,67.55,60,100,4.47
79,964406,Port Shepstone,ZA,-30.74,30.45,57.07,57,0,8.34
80,1786657,Yinchuan,CN,38.47,106.27,76.42,62,98,7.31
81,2015306,Tiksi,RU,71.69,128.87,53.24,80,36,11.77
82,6165406,Thompson,CA,55.74,-97.86,69.8,94,75,5.82
83,1279094,Akot,IN,21.1,77.06,79.45,84,100,5.59
84,2123814,Leningradskiy,RU,69.38,178.42,51.58,61,57,11.25
85,1163272,Toba Tek Singh,PK,30.97,72.48,92.23,47,0,7.85
86,3608828,Iralaya,HN,15.0,-83.23,81.07,82,82,8.05
87,3984997,San Quintín,MX,30.48,-115.95,67.14,77,0,12.35
88,4034551,Faanui,PF,-16.48,-151.75,77.54,76,98,17.76
89,705544,Kobelyaky,UA,49.15,34.2,58.08,80,19,6.93
90,255689,Patitiri,GR,39.15,23.87,71.01,72,0,13.78
91,219057,Beni,CD,0.5,29.47,63.21,98,100,1.25
92,863061,Usinsk,RU,65.99,57.53,61.72,61,0,7.05
93,281133,Gaza,PS,31.5,34.47,68.54,62,0,1.99
94,5113760,Corning,US,42.14,-77.05,71.49,73,75,3.24
95,2094342,Kavieng,PG,-2.57,150.8,86.58,67,17,9.8
96,2122090,Pevek,RU,69.7,170.31,47.23,70,84,3.67
97,3402429,Caucaia,BR,-3.74,-38.65,78.39,78,20,5.82
98,1067565,Beloha,MG,-25.17,45.05,59.11,79,18,11.56
99,86049,Jalu,LY,29.03,21.55,76.21,46,0,10.29
100,4031574,Provideniya,RU,64.38,-173.3,50.7,66,100,2.68
101,2180815,Tuatapere,NZ,-46.13,167.68,50.22,77,100,7.02
102,1488838,Tyazhinskiy,RU,56.12,88.52,63.64,62,100,11.36
103,72181,Marzuq,YE,14.4,46.47,76.35,68,29,7.11
104,3573374,The Valley,AI,18.22,-63.06,83.41,74,20,9.17
105,8079926,Labuhan,ID,-6.88,112.21,78.71,69,100,10.27
106,2514651,Los Llanos de Aridane,ES,28.66,-17.92,69.8,77,3,13.87
107,2396518,Port-Gentil,GA,-0.72,8.78,75.18,81,85,11.59
108,2236967,Soyo,AO,-6.13,12.37,71.65,87,81,4.47
109,4033557,Tautira,PF,-17.73,-149.15,80.29,57,40,5.82
110,6180550,Whitehorse,CA,60.72,-135.05,63.21,39,75,11.41
111,2446796,Bilma,NE,18.69,12.92,84.09,17,25,4.14
112,2047258,Novyy Urgal,RU,51.07,132.56,73.22,67,100,3.65
113,2022572,Khatanga,RU,71.97,102.5,44.51,81,97,14.23
114,5991056,Kenora,CA,49.82,-94.43,83.07,74,75,6.93
115,3495137,Pedernales,DO,18.04,-71.74,81.7,59,2,6.96
116,964090,Prieska,ZA,-29.66,22.75,48.9,47,0,4.27
117,4734909,Sulphur Springs,US,33.14,-95.6,83.8,74,1,4.7
118,556268,Ostrovnoy,RU,68.05,39.51,57.13,86,1,12.19
119,2090021,Namatanai,PG,-3.67,152.43,84.54,74,6,10.94
120,2618795,Klaksvík,FO,62.23,-6.59,50.0,100,100,8.05
121,296852,Erzin,TR,36.96,36.2,79.0,89,4,0.04
122,777019,Vardø,NO,70.37,31.11,56.41,88,0,11.79
123,4033543,Teahupoo,PF,-17.83,-149.27,80.29,57,40,5.82
124,3899695,Ancud,CL,-41.87,-73.82,46.27,100,90,10.29
125,3831208,Qaanaaq,GL,77.48,-69.36,45.82,57,0,2.91
126,1798425,Puyang,CN,29.46,119.89,80.69,78,97,0.98
127,2017155,Saskylakh,RU,71.92,114.08,48.52,79,99,10.54
128,1259385,Port Blair,IN,11.67,92.75,83.89,73,45,4.5
129,5557293,Sitka,US,57.05,-135.33,57.2,82,90,9.17
130,2181625,Te Anau,NZ,-45.42,167.72,47.3,79,100,5.97
131,2843396,Rüdesheim an der Nahe,DE,49.85,7.82,59.83,72,0,3.51
132,1636806,Majene,ID,-3.54,118.97,81.25,73,52,11.48
133,3995523,Monclova,MX,26.9,-101.42,91.99,45,12,3.0
134,2070998,Geraldton,AU,-28.77,114.6,59.0,54,0,20.8
135,5554428,Ketchikan,US,55.34,-131.65,60.8,72,90,11.41
136,2178753,Kirakira,SB,-10.45,161.92,83.26,78,60,18.14
137,286245,Sur,OM,22.57,59.53,86.32,63,0,8.14
138,158825,Izazi,TZ,-7.2,35.73,57.2,67,5,11.41
139,1266668,Khonsa,IN,27.02,95.57,77.05,79,69,2.3
140,1718214,Casambalangan,PH,18.38,122.13,88.18,64,85,2.57
141,2084442,Vanimo,PG,-2.67,141.3,86.36,63,100,9.55
142,1049261,Chimoio,MZ,-19.12,33.48,57.2,100,75,5.88
143,7671223,Kloulklubed,PW,7.04,134.26,75.2,94,90,9.42
144,3137469,Sørland,NO,67.67,12.69,52.47,88,100,2.95
145,6185377,Yellowknife,CA,62.46,-114.35,59.0,87,75,10.29
146,1819729,Hong Kong,HK,22.29,114.16,91.0,63,93,8.01
147,3361934,Saldanha,ZA,-33.01,17.94,46.4,70,0,3.36
148,2156643,Mount Gambier,AU,-37.83,140.77,51.8,76,90,5.82
149,496358,Severnyy,RU,50.68,36.55,53.6,81,96,4.45
150,1611197,Chiang Khong,TH,20.26,100.4,73.99,99,18,1.41
151,6096551,Pangnirtung,CA,66.15,-65.71,52.09,71,92,2.42
152,6145563,Shawville,CA,45.6,-76.48,69.01,74,17,2.51
153,2077895,Alice Springs,AU,-23.7,133.88,59.0,44,0,10.29
154,1651810,Airai,TL,-8.93,125.41,70.52,41,63,5.06
155,1712961,Gigmoto,PH,13.78,124.39,83.66,73,100,4.56
156,5955902,Fort Nelson,CA,58.81,-122.7,64.4,72,75,8.05
157,6690296,Saint-Joseph,RE,-21.37,55.62,54.16,77,90,17.22
158,1006984,East London,ZA,-33.02,27.91,64.78,26,0,5.26
159,4164092,Merritt Island,US,28.54,-80.67,81.99,78,1,8.25
160,3388456,São José da Coroa Grande,BR,-8.9,-35.15,74.79,79,51,11.65
161,5861897,Fairbanks,US,64.84,-147.72,59.94,77,75,5.82
162,1185270,Bāndarban,BD,22.2,92.23,82.4,88,75,1.92
163,363885,Wau,SS,7.7,28.0,71.17,94,100,4.23
164,3893726,Constitución,CL,-35.33,-72.42,46.08,72,0,4.45
165,2112802,Hasaki,JP,35.73,140.83,81.3,94,75,6.93
166,2856500,Osterholz-Scharmbeck,DE,53.23,8.8,58.37,93,75,1.12
167,3374210,São Filipe,CV,14.9,-24.5,76.93,81,95,2.75
168,934649,Cap Malheureux,MU,-19.98,57.61,66.0,70,57,13.0
169,1529484,Kumul,CN,42.8,93.45,82.53,29,0,4.38
170,1214488,Meulaboh,ID,4.14,96.13,79.54,83,26,2.64
171,105298,Jizan,SA,17.33,42.67,86.0,70,100,4.7
172,1510689,Baykit,RU,61.67,96.37,54.91,84,99,4.88
173,4020109,Atuona,PF,-9.8,-139.03,79.11,78,27,18.5
174,2610806,Vágur,FO,61.47,-6.81,52.32,96,100,14.54
175,5134295,Rome,US,43.21,-75.46,69.64,78,1,3.36
176,3457566,Mascote,BR,-15.56,-39.3,63.54,95,21,2.13
177,286987,Nizwá,OM,22.93,57.53,79.97,65,23,4.41
178,701802,Markova,UA,48.68,24.41,56.44,86,25,4.29
179,3354077,Opuwo,NA,-18.06,13.84,51.85,45,0,8.88
180,686090,Asău,RO,46.43,26.4,60.01,95,1,3.24
181,964420,Port Elizabeth,ZA,-33.92,25.57,55.4,37,0,6.93
182,1185262,Bherāmāra,BD,24.02,88.99,82.58,83,28,5.93
183,3584003,Puerto El Triunfo,SV,13.28,-88.55,80.6,88,20,2.24
184,3470338,Bataiporã,BR,-22.3,-53.27,68.4,48,0,5.75
185,1254046,Tura,IN,25.52,90.22,78.58,90,100,4.05
186,3652764,Puerto Ayora,EC,-0.74,-90.35,68.0,95,61,5.01
187,2013727,Vanavara,RU,60.34,102.28,59.97,70,0,8.77
188,6453331,Kristiansund,NO,63.11,7.73,51.8,76,61,10.29
189,57000,Hobyo,SO,5.35,48.53,76.21,75,32,23.42
190,5530932,Socorro,US,31.65,-106.3,67.12,88,90,28.86
191,3449350,São Bento do Sul,BR,-26.25,-49.38,63.0,64,0,25.01
192,368246,Raja,SS,8.46,25.68,69.71,90,100,5.82
193,2425791,Kibala,TD,9.11,18.35,72.3,94,100,1.7
194,4975966,Presque Isle,US,46.68,-68.02,68.0,82,1,2.75
195,3421719,Narsaq,GL,60.92,-46.05,48.2,87,100,5.82
196,3893629,Coquimbo,CL,-29.95,-71.34,50.0,76,0,9.17
197,5847411,Kahului,US,20.89,-156.47,81.27,62,40,32.21
198,1106677,Bambous Virieux,MU,-20.34,57.76,67.06,52,75,18.34
199,3418910,Upernavik,GL,72.79,-56.15,46.36,84,100,5.73
200,3394023,Natal,BR,-5.79,-35.21,72.5,83,64,8.05
201,2063036,Port Lincoln,AU,-34.73,135.87,57.31,74,0,4.07
202,3471451,Arraial do Cabo,BR,-22.97,-42.03,71.65,82,0,26.17
203,1258269,Rāzole,IN,16.48,81.83,82.51,79,96,2.01
204,3427833,Tandil,AR,-37.32,-59.13,37.0,78,9,1.01
205,5972291,Havre-St-Pierre,CA,50.23,-63.6,57.2,87,1,8.05
206,2377457,Nouadhibou,MR,20.93,-17.03,69.8,88,0,11.41
207,3421765,Nanortalik,GL,60.14,-45.24,44.85,91,100,0.92
208,2725123,Arvika,SE,59.66,12.59,44.62,100,22,0.56
209,2194098,Ahipara,NZ,-35.17,173.17,56.7,59,88,7.58
210,5851349,Nānākuli,US,21.39,-158.15,86.99,43,1,9.17
211,6453319,Harstad,NO,68.8,16.53,50.77,100,100,10.29
212,3865086,Bahía Blanca,AR,-38.72,-62.27,37.96,73,0,10.29
213,738803,Terme,TR,41.21,36.97,66.2,82,75,3.36
214,2137773,Vao,NC,-22.67,167.48,71.31,81,1,16.4
215,935215,Saint-Philippe,RE,-21.36,55.77,53.49,77,90,17.22
216,934322,Mahébourg,MU,-20.41,57.7,68.0,52,75,18.34
217,2638419,Scarborough,GB,54.28,-0.4,59.92,93,100,4.0
218,5866583,Saint Paul Harbor,US,57.79,-152.41,60.8,72,90,3.36
219,5392171,San Jose,US,37.34,-121.89,68.02,56,20,16.11
220,3421982,Maniitsoq,GL,65.42,-52.9,47.43,90,100,3.87
221,2152659,Port Macquarie,AU,-31.43,152.92,64.99,70,64,1.01
222,3466165,Cidreira,BR,-30.18,-50.21,58.8,91,100,13.53
223,1626703,Soe,ID,-9.86,124.28,75.31,42,99,7.23
224,600688,Baltoji Vokė,LT,54.6,25.2,58.39,67,75,11.41
225,3911925,La Paz,BO,-16.5,-68.15,35.6,27,40,2.24
226,5380437,Pacific Grove,US,36.62,-121.92,60.31,72,90,8.05
227,1526038,Atbasar,KZ,51.8,68.33,62.24,90,100,10.38
228,2088163,Popondetta,PG,-8.75,148.25,91.29,47,0,3.94
229,2092740,Lae,PG,-6.72,146.98,84.87,58,68,5.14
230,1045114,Inhambane,MZ,-23.86,35.38,64.51,74,13,10.27
231,1500973,Kyzyl,RU,51.7,94.45,71.71,41,30,2.57
232,5329649,Blythe,US,33.61,-114.6,99.75,16,0,3.0
233,5110092,Brewster,US,41.4,-73.62,70.9,88,1,4.7
234,2169068,Deniliquin,AU,-35.53,144.97,60.01,56,97,3.78
235,3522293,Ostuacán,MX,17.42,-93.3,76.44,85,96,2.33
236,5880054,Barrow,US,71.29,-156.79,35.6,80,90,11.41
237,1488903,Turukhansk,RU,65.82,87.98,58.64,69,95,2.59
238,3946820,Barranca,PE,-10.75,-77.77,58.12,92,20,6.71
239,3932145,Pisco,PE,-13.7,-76.22,60.89,82,1,16.11
240,511794,Pechora,RU,65.15,57.22,62.44,54,69,7.76
241,1842966,Gijang,KR,35.24,129.21,71.6,88,75,6.93
242,2165087,Gold Coast,AU,-28.0,153.43,64.11,93,90,2.24
243,108410,Riyadh,SA,24.69,46.72,91.4,33,0,5.82
244,2311968,Nioki,CD,-2.72,17.68,77.5,56,56,2.98
245,3899539,Antofagasta,CL,-23.65,-70.4,55.4,71,0,20.8
246,3838233,Salta,AR,-24.79,-65.41,33.8,80,0,2.13
247,5859699,College,US,64.86,-147.8,59.7,67,90,3.36
248,2138555,Poum,NC,-20.23,164.02,75.81,81,0,17.74
249,100926,Umluj,SA,25.02,37.27,84.63,55,14,3.85
250,5864145,Homer,US,59.64,-151.55,55.6,93,90,4.7
251,2132606,Samarai,PG,-10.62,150.67,79.47,85,58,16.08
252,5879400,Anchorage,US,61.22,-149.9,57.96,82,90,4.7
253,591632,Kärdla,EE,59.0,22.75,57.0,94,100,4.0
254,1735106,George Town,MY,5.41,100.34,79.36,94,20,5.82
255,2445704,Diffa,NE,13.32,12.61,83.57,56,6,8.41
256,535542,Levashi,RU,42.43,47.32,73.2,83,20,6.71
257,2012956,Yerbogachën,RU,61.28,108.01,60.31,67,56,12.06
258,2175403,Blackwater,AU,-23.58,148.88,70.66,59,41,2.86
259,2141714,Bourail,NC,-21.57,165.48,77.54,66,78,7.05
260,3166595,Sestri Levante,IT,44.27,9.4,67.93,71,0,5.23
261,2208248,Kaitangata,NZ,-46.28,169.85,52.0,60,100,14.0
262,2017979,Petropavlovka,RU,50.61,105.32,62.74,87,100,3.31
263,3374083,Bathsheba,BB,13.22,-59.52,82.4,78,75,19.46
264,3136690,Stokmarknes,NO,68.56,14.91,53.35,95,100,4.0
265,6050066,La Ronge,CA,55.1,-105.28,73.4,60,20,5.82
266,2092164,Lorengau,PG,-2.02,147.27,84.0,77,84,10.56
267,2127202,Anadyr,RU,64.75,177.48,55.17,76,23,15.66
268,4231997,Avera,US,33.19,-82.53,73.85,70,40,5.82
269,2038446,Baoqing,CN,46.33,132.21,74.86,77,79,4.68
270,2063039,Port Keats,AU,-14.25,129.55,83.75,35,33,11.54
271,3883457,Lebu,CL,-37.62,-73.65,47.95,78,100,11.1
272,3530617,Cintalapa,MX,16.7,-93.73,72.95,88,100,1.23
273,5262680,Merrill,US,45.18,-89.68,74.59,83,1,3.36
274,2020738,Litovko,RU,49.24,135.17,71.6,70,69,5.75
275,2963295,Killybegs,IE,54.63,-8.45,55.99,96,100,7.0
276,1529626,Baijiantan,CN,45.63,85.18,84.97,31,100,20.98
277,921786,Mitsamiouli,KM,-11.38,43.28,76.62,69,55,14.9
278,3430443,Necochea,AR,-38.55,-58.74,37.99,86,8,10.0
279,4021858,Guerrero Negro,MX,27.98,-114.06,67.3,77,0,15.61
280,3421319,Nuuk,GL,64.18,-51.72,50.0,87,99,4.7
281,3347019,Mossamedes,AO,-15.2,12.15,65.95,81,0,4.79
282,3079824,Albrechtice,CZ,49.79,18.52,56.86,100,100,5.82
283,3466980,Caravelas,BR,-17.71,-39.25,69.49,82,1,4.43
284,2172880,Byron Bay,AU,-28.65,153.62,60.24,93,90,10.29
285,2160735,Lakes Entrance,AU,-37.88,147.98,55.0,64,80,1.99
286,2460954,Araouane,ML,18.9,-3.53,94.33,36,0,22.62
287,2653915,Campbeltown,GB,55.43,-5.61,58.15,100,100,5.82
288,6111862,Port Hardy,CA,50.7,-127.42,60.8,72,40,14.99
289,608270,Shubarshi,KZ,48.59,57.19,71.31,56,33,3.58
290,2121025,Srednekolymsk,RU,67.45,153.68,87.76,24,15,5.39
291,1862505,Hirara,JP,24.8,125.28,86.32,74,75,8.05
292,1516048,Khovd,MN,48.01,91.64,72.82,38,0,0.94
293,3939761,Hualmay,PE,-11.1,-77.61,60.31,86,32,9.04
294,6137462,Saint-Augustin,CA,51.23,-58.65,60.28,85,99,7.18
295,3389652,Santa Cruz do Capibaribe,BR,-7.96,-36.2,64.54,93,34,8.43
296,4720067,Lavaca,US,28.61,-96.63,84.04,79,40,18.34
297,3347353,Menongue,AO,-14.66,17.69,43.74,62,19,4.14
298,3443061,Chui,UY,-33.7,-53.46,47.01,91,99,9.19
299,3388868,São Domingos do Maranhão,BR,-5.58,-44.39,73.62,47,3,5.14
300,1280957,Jiayuguan City,CN,39.82,98.3,75.13,33,0,10.65
301,3185012,Laç,AL,41.64,19.71,71.6,88,0,5.82
302,1855540,Naze,JP,28.37,129.48,80.58,94,75,6.93
303,170062,Aleppo Governorate,SY,36.25,37.5,71.94,71,0,14.54
304,6089245,Norman Wells,CA,65.28,-126.83,73.4,31,20,6.93
305,286621,Salalah,OM,17.02,54.09,78.8,88,75,6.93
306,3353383,Rundu,NA,-17.93,19.77,47.73,57,0,7.16
307,3372783,Ponta Delgada,PT,37.73,-25.67,66.2,77,75,2.33
308,519630,Novaya Ladoga,RU,60.1,32.3,53.01,99,100,10.49
309,2012510,Zhireken,RU,52.82,117.31,82.67,44,2,2.55
310,1215502,Banda Aceh,ID,5.56,95.32,82.72,72,21,2.24
311,3115824,Muros,ES,42.78,-9.06,64.0,81,1,1.99
312,5367788,Lompoc,US,34.64,-120.46,60.06,77,14,11.41
313,64814,Bandarbeyla,SO,9.49,50.81,76.5,66,51,24.72
314,1624041,Ternate,ID,0.8,127.4,83.12,70,82,1.77
315,3424607,Tasiilaq,GL,65.61,-37.64,41.0,93,100,3.36
316,3372472,Vila Franca do Campo,PT,37.72,-25.43,66.2,77,75,1.48
317,4031637,Lavrentiya,RU,65.58,-171.0,49.26,69,100,6.11
318,3374462,Mindelo,CV,16.89,-24.98,78.8,78,40,11.41
319,1121143,Zabul Province,AF,32.25,67.25,69.03,65,0,8.43
320,3173615,Melfi,IT,41.0,15.65,71.62,83,0,2.24
321,2033574,Zhangjiakou Shi Xuanhua Qu,CN,40.61,115.04,84.25,36,100,4.23
322,1582886,Kwang Binh,VN,17.48,106.6,90.01,55,0,2.24
323,2098329,Daru,PG,-9.08,143.21,79.7,82,52,18.16
324,2136150,Luganville,VU,-15.53,167.17,82.4,78,75,9.17
325,364103,Wad Medani,SD,14.4,33.52,85.21,53,72,15.73
326,2112309,Katsuura,JP,35.13,140.3,80.47,94,75,9.17
327,463144,Zheshart,RU,62.07,49.57,57.87,88,92,3.15
328,3447473,Sobradinho,BR,-12.83,-39.1,64.47,93,0,3.85
329,1637001,Biak,ID,-0.91,122.88,80.17,76,95,8.16
330,5786882,Bellevue,US,47.61,-122.2,63.75,52,75,6.93
331,3423146,Ilulissat,GL,69.22,-51.1,44.6,93,100,8.05
332,1264976,Leh,IN,34.17,77.58,61.23,39,28,4.47
333,2338660,Yaan,NG,7.38,8.57,71.11,95,67,5.19
334,5954718,Flin Flon,CA,54.77,-101.86,74.57,66,6,7.4
335,3522526,Nuevo Progreso,MX,23.17,-97.95,83.37,61,49,6.06
336,2022174,Khurba,RU,50.41,136.88,68.61,60,65,5.26
337,6156307,Stettler,CA,52.32,-112.72,61.0,80,100,4.0
338,1849892,Tottori-shi,JP,35.5,134.23,84.2,70,75,5.82
339,508362,Podgornoye,RU,51.73,39.15,48.2,87,0,6.71
340,1495626,Pangody,RU,65.85,74.49,57.87,61,0,11.07
341,1161724,Chabahar,IR,25.29,60.64,84.13,76,42,4.83
342,359796,Suez,EG,29.97,32.53,74.23,78,0,6.29
343,4385966,Excelsior Springs,US,39.34,-94.23,82.74,74,1,7.47
344,3665202,Aripuanã,BR,-9.17,-60.63,81.75,50,83,1.12
345,1503037,Kodinsk,RU,58.69,99.18,63.64,58,0,5.32
346,2120612,Tigil',RU,57.8,158.67,68.45,48,0,6.78
347,2511180,Santa Cruz de La Palma,ES,28.68,-17.76,69.8,77,10,13.87
348,3450083,Santa Maria,BR,-29.68,-53.81,50.0,93,90,4.7
349,1490256,Talnakh,RU,69.49,88.4,55.4,58,0,15.66
350,1242110,Kalmunai,LK,7.42,81.82,81.39,77,100,3.0
351,347634,Ţahţā,EG,26.77,31.5,84.29,27,0,6.93
352,5742974,North Bend,US,43.41,-124.22,62.19,72,1,29.97
353,2318374,Gboko,NG,7.32,9.0,72.37,90,21,9.4
354,3654410,Manta,EC,-0.95,-80.73,71.6,83,26,8.05
355,2374583,Bubaque,GW,11.28,-15.83,80.19,83,100,14.52
356,6095751,Oxbow,CA,49.23,-102.17,77.0,83,20,1.99
357,2409914,Bonthe,SL,7.53,-12.51,75.54,86,100,10.0
358,89113,Ajdabiya,LY,30.76,20.23,70.43,90,0,5.08
359,4513583,Hamilton,US,39.18,-84.53,75.06,83,1,2.51
360,1254709,Tezu,IN,27.92,96.17,83.53,68,100,1.72
361,3372760,Praia da Vitória,PT,38.73,-27.07,66.2,82,20,3.85
362,2212775,Sabha,LY,27.04,14.43,75.33,26,0,11.32
363,7117100,Vila,PT,42.03,-8.16,62.87,88,0,4.7
364,1106643,Quatre Cocos,MU,-20.21,57.76,66.96,52,75,18.34
365,88533,Awjilah,LY,29.11,21.29,75.4,50,0,10.63
366,3936456,Lima,PE,-12.04,-77.03,60.8,82,75,10.29
367,3397963,Itamaracá,BR,-7.75,-34.83,77.0,73,40,13.87
368,553766,Kamenka,RU,51.32,42.77,52.97,82,73,1.99
369,1626542,Sorong,ID,-0.88,131.25,82.98,75,8,9.28
370,5855051,‘Ewa Beach,US,21.32,-158.01,87.78,43,1,9.17
371,6255012,Flinders,AU,-34.58,150.86,61.0,78,33,3.0
372,3838859,Río Gallegos,AR,-51.62,-69.22,33.8,86,0,13.87
373,1526041,Atasū,KZ,48.68,71.64,73.81,39,0,12.48
374,1267390,Kavaratti,IN,10.57,72.64,81.5,83,100,25.34
375,2742765,Areosa,PT,41.72,-8.86,63.03,87,0,4.7
376,5983607,Inuvik,CA,68.35,-133.72,68.0,42,75,6.93
377,2035601,Mergen,CN,49.18,125.22,90.45,37,25,12.5
378,2127060,Arman',RU,59.7,150.17,62.28,67,0,6.96
379,2177069,Ballina,AU,-28.87,153.57,60.57,93,90,10.29
380,2030065,Mandalgovi,MN,45.76,106.27,71.2,55,3,8.23
381,315202,Eskişehir,TR,39.78,30.52,59.0,72,0,5.82
382,323776,Antalya Province,TR,36.77,30.72,78.8,44,0,6.93
383,3407407,Aquiraz,BR,-3.9,-38.39,78.8,78,20,5.82
384,110690,Faya,SA,18.39,42.45,65.3,72,78,6.87
385,240604,Bambari,CF,5.77,20.68,68.76,92,99,2.37
386,2449066,Tombouctou,ML,20.0,-3.0,99.28,10,59,12.77
387,3402648,Carutapera,BR,-1.2,-46.02,75.47,92,90,6.02
388,2063056,Port Augusta,AU,-32.5,137.77,59.49,82,90,10.29
389,3453503,Pires do Rio,BR,-17.3,-48.28,62.17,53,47,5.88
390,1568574,Qui Nhon,VN,13.77,109.23,86.58,60,15,3.31
391,2636790,Stornoway,GB,58.21,-6.39,55.0,92,100,8.34
392,3457708,Maricá,BR,-22.92,-42.82,72.52,73,0,4.7
393,4031742,Egvekinot,RU,66.32,-179.17,54.45,59,67,4.72
394,2126682,Bilibino,RU,68.05,166.44,81.81,40,11,12.84
395,3664980,Boa Vista,BR,2.82,-60.67,80.6,83,40,2.24
396,487928,Novikovo,RU,51.15,37.89,54.07,82,28,2.71
397,1011918,Danielskuil,ZA,-28.19,23.54,43.52,60,0,8.99
398,358619,Port Said,EG,31.26,32.28,78.8,83,0,9.17
399,5563839,Fortuna,US,40.6,-124.16,60.73,72,1,13.87
400,2022304,Khorinsk,RU,52.17,109.77,75.96,42,100,1.59
401,5911440,Burgeo,CA,47.62,-57.62,60.55,82,0,7.09
402,1270077,Hinganghāt,IN,20.57,78.83,77.0,94,75,3.36
403,81604,Qaryat Sulūq,LY,31.67,20.25,71.94,91,0,8.52
404,548478,Kirillov,RU,59.86,38.38,47.03,96,0,2.91
405,1633442,Paciran,ID,-6.88,112.38,78.75,70,100,7.43
406,3433899,Formosa,AR,-26.18,-58.18,48.2,93,90,8.05
407,3855075,General Pico,AR,-35.66,-63.76,40.75,65,30,10.51
408,778362,Øksfjord,NO,70.24,22.35,63.84,72,63,27.51
409,4273299,Hutchinson,US,38.06,-97.93,83.55,66,1,8.05
410,2122783,Nogliki,RU,51.83,143.17,55.78,72,1,9.78
411,2100933,Ambunti,PG,-4.24,142.84,91.54,56,47,2.19
412,7082481,Khuzdar,PK,27.74,66.64,83.07,47,12,2.01
413,1529660,Aksu,CN,41.12,80.26,84.09,23,38,3.31
414,1648759,Bima,ID,-8.47,118.72,82.33,53,100,6.85
415,3840300,Presidencia Roque Sáenz Peña,AR,-26.79,-60.44,39.56,95,1,3.29
416,2399001,Mayumba,GA,-3.43,10.66,71.02,87,82,4.5
417,5850554,Makakilo City,US,21.35,-158.09,87.73,43,1,9.17
418,338554,Dubti,ET,11.74,41.09,84.81,52,81,3.76
419,1061335,Mananjary,MG,-21.22,48.33,63.27,80,0,9.51
420,4018499,Angostura,MX,25.37,-108.18,84.34,69,95,3.0
421,950709,Swellendam,ZA,-34.02,20.44,42.8,93,0,5.82
422,3464008,Esmeraldas,BR,-19.76,-44.31,60.8,93,0,3.36
423,178443,Wajir,KE,1.75,40.06,71.04,69,2,15.05
424,2192362,Christchurch,NZ,-43.53,172.63,53.58,58,65,3.36
425,1649150,Bengkulu,ID,-3.8,102.27,80.96,73,84,4.12
426,1261748,Narsīpatnam,IN,17.67,82.62,78.8,94,75,2.24
427,1513491,Yangi Marg`ilon,UZ,40.43,71.72,75.2,53,0,4.7
428,2134814,Sola,VU,-13.88,167.55,79.93,82,99,27.42
429,2028462,Ulaanbaatar,MN,47.91,106.88,68.0,68,75,4.47
430,532288,Magnitogorsk,RU,53.42,59.05,60.8,100,90,6.71
431,2067089,Maningrida,AU,-12.07,134.27,84.69,40,4,10.94
432,5870133,Nome,US,64.5,-165.41,54.68,71,90,9.17
433,3408368,Acaraú,BR,-2.89,-40.12,77.09,83,28,14.43
434,3091150,Nakło nad Notecią,PL,53.14,17.6,54.66,100,0,1.12
435,3077024,Dobříš,CZ,49.78,14.17,63.39,63,19,2.68
436,1019330,Bhisho,ZA,-32.85,27.44,57.4,29,0,7.05
437,1235846,Matara,LK,5.95,80.54,78.94,87,100,8.28
438,3691582,Talara,PE,-4.58,-81.27,64.18,84,13,19.8
439,1714733,Dingle,PH,11.0,122.67,84.15,73,100,1.68
440,2071860,Esperance,AU,-33.87,121.9,50.0,87,67,23.04
441,5391295,Salinas,US,36.68,-121.66,61.5,72,90,12.75
442,1266924,Kharhiāl,IN,20.28,82.77,79.75,71,100,2.51
443,1214026,Sabang,ID,5.89,95.32,82.44,76,45,6.04
444,3991347,Puerto Peñasco,MX,31.32,-113.53,86.0,74,0,7.0
445,3578447,Sainte-Rose,GP,16.33,-61.7,82.4,78,75,6.93
446,3470137,Belmonte,BR,-15.86,-38.88,66.2,88,10,2.24
447,4946620,Palmer,US,42.16,-72.33,68.59,94,40,3.11
448,3441243,Paysandu,UY,-32.32,-58.08,44.01,82,17,1.99
449,2032614,Baruun-Urt,MN,46.68,113.28,74.77,64,98,5.03
450,898912,Serenje,ZM,-13.23,30.24,45.14,95,0,6.89
451,2128975,Nemuro,JP,43.32,145.57,62.6,77,75,6.93
452,2324767,Potiskum,NG,11.71,11.07,76.44,72,46,11.39
453,4036284,Alofi,NU,-19.06,-169.92,78.8,74,13,14.99
454,566000,Dmitriyevskaya,RU,45.66,40.77,67.51,45,78,11.48
455,3036281,Auch,FR,43.65,0.58,57.38,81,23,5.75
456,2019199,Nizhneangarsk,RU,55.78,109.55,60.82,65,2,2.84
457,986717,Kruisfontein,ZA,-34.0,24.73,60.24,28,0,11.68
458,2063042,Port Hedland,AU,-20.32,118.57,75.2,23,0,21.92
459,3526756,Isla Mujeres,MX,21.23,-86.73,83.5,74,75,10.29
460,3175096,Laas,IT,46.62,10.7,52.99,93,75,3.36
461,2643044,Margate,GB,51.38,1.39,62.38,87,92,4.0
462,1807689,Huaihua,CN,27.55,109.96,87.96,66,100,5.46
463,2159220,Mackay,AU,-21.15,149.2,70.7,68,90,8.05
464,933726,Tshane,BW,-24.02,21.87,43.45,63,0,9.4
465,1260206,Pāsighāt,IN,28.07,95.33,80.44,79,100,1.01
466,933759,Ghanzi,BW,-21.57,21.78,44.98,69,0,9.93
467,103630,Najrān,SA,17.49,44.13,82.4,34,100,3.36
468,3398381,Icatu,BR,-2.78,-44.07,78.8,88,18,5.82
469,2449893,Tessalit,ML,20.2,1.01,88.84,38,66,15.43
470,1326105,Falam,MM,22.92,93.68,70.34,90,93,1.1
471,4319518,Chalmette,US,29.94,-89.96,78.3,83,1,5.82
472,2120048,Ust-Nera,RU,64.57,143.2,86.77,24,89,2.08
473,3663495,Manoel Urbano,BR,-8.84,-69.26,73.56,86,0,0.78
474,1215412,Belawan,ID,3.78,98.68,77.0,100,40,6.93
475,1636544,Manado,ID,1.49,124.85,86.0,66,40,4.7
476,2737268,Mozelos,PT,41.87,-8.4,65.26,88,0,4.7
477,3379316,Lethem,GY,3.38,-59.8,77.04,84,100,2.86
478,2021954,Knyaze-Volkonskoye,RU,48.46,135.46,73.4,56,20,4.47
479,4470244,Havelock,US,34.88,-76.9,79.34,83,86,5.84
480,2026861,Berdigestyakh,RU,62.1,126.7,68.38,87,100,3.89
481,2171099,Codrington,AU,-38.27,141.97,54.16,68,100,2.1
482,2619650,Hundested,DK,55.97,11.87,54.72,90,0,13.04
483,3414079,Olafsvik,IS,64.89,-23.71,45.7,74,49,12.26
484,2308278,Mbini,GQ,1.57,9.61,76.32,82,88,6.71
485,962367,Richards Bay,ZA,-28.78,32.04,60.4,77,0,10.02
486,1522348,Komsomolets,KZ,53.75,62.07,57.6,84,1,8.75
487,1635815,Maumere,ID,-8.62,122.21,80.29,60,63,7.63
488,6453316,Tromsø,NO,69.65,18.96,53.6,100,100,18.34
489,2037335,Fuyu,CN,45.18,124.82,90.9,36,67,5.93
490,4566022,Loíza,PR,18.43,-65.88,81.46,83,40,13.87
491,5044290,Saint Anthony,US,45.02,-93.22,85.26,66,40,10.29
492,1276067,Bhatkal,IN,13.97,74.57,78.21,84,100,11.27
493,1062553,Mahanoro,MG,-19.9,48.8,64.78,81,2,9.93
494,3405993,Batalha,BR,-9.68,-37.12,64.81,93,25,4.72
495,2025256,Chumikan,RU,54.72,135.31,56.8,70,1,12.88
496,1278987,Allāpalli,IN,19.42,80.07,77.67,87,100,2.86
497,2019935,Mnogovershinnyy,RU,53.94,139.92,61.81,50,0,7.63
498,2448083,Agadez,NE,19.75,10.25,80.74,20,0,0.98
499,1636308,Manokwari,ID,-0.87,134.08,82.72,72,84,2.3
500,3448903,São João da Barra,BR,-21.64,-41.05,71.69,83,0,16.2
501,3628473,San Cristobal,VE,7.77,-72.22,65.57,93,41,3.67
502,3557758,Guane,CU,22.2,-84.09,78.06,80,98,4.29
503,780687,Berlevåg,NO,70.86,29.09,56.98,84,0,12.86
504,290030,Doha,QA,25.29,51.53,93.47,67,94,10.29
505,1279945,Jiuquan,CN,39.74,98.52,76.42,34,0,5.73
506,3548993,Los Palacios,CU,22.59,-83.25,76.19,87,100,2.3
507,1486321,Yar-Sale,RU,66.83,70.83,58.62,62,23,10.8
508,1570449,Phu Ly,VN,20.54,105.91,90.23,61,50,7.45
509,3542455,Remedios,CU,22.49,-79.55,78.8,83,40,2.24
510,1507116,Dudinka,RU,69.41,86.18,55.4,58,10,15.66
511,2447513,Arlit,NE,18.74,7.39,88.09,40,0,9.1
512,2068655,Katherine,AU,-14.47,132.27,82.4,28,0,13.87
513,110690,Abhā,SA,18.22,42.51,65.23,72,83,8.46
514,2208655,Zalţan,LY,32.95,11.87,76.41,50,0,7.4
515,3139597,Sistranda,NO,63.73,8.83,50.83,87,75,12.48
516,1485997,Yeniseysk,RU,58.45,92.17,63.3,68,11,3.04
517,339219,Dessie,ET,11.13,39.63,53.98,84,72,3.62
518,1610940,Det Udom,TH,14.91,105.08,85.78,78,20,2.24
519,238566,Ippy,CF,6.27,21.22,67.21,95,95,4.12
520,1640576,Kefamenanu,ID,-9.45,124.48,78.17,49,88,7.18
521,1494523,Polovinnoye,RU,54.79,65.99,58.66,71,4,8.97
522,1214073,Rantauprapat,ID,2.1,99.83,78.3,92,91,2.13
523,701372,Mena,UA,51.52,32.22,53.13,82,33,5.32
524,4362001,Mayo,US,38.89,-76.51,74.48,83,1,4.7
525,2949773,Bestwig,DE,51.37,8.4,58.62,92,29,3.56
526,4440397,Pascagoula,US,30.37,-88.56,76.95,88,1,4.7
527,1853483,Oyama,JP,36.3,139.8,80.6,83,75,11.41
528,3663516,Mâncio Lima,BR,-7.61,-72.9,75.97,75,17,1.92
529,967476,Orkney,ZA,-26.98,26.67,44.28,60,0,4.34
530,1624725,Tarakan,ID,3.3,117.63,80.82,78,100,4.9
531,3691954,Sechura,PE,-5.56,-80.82,64.38,79,56,15.55
532,1735799,Sri Aman,MY,1.24,111.46,77.0,94,40,2.24
533,2656847,Atherton,GB,53.52,-2.49,60.76,99,100,3.0
534,2191562,Dunedin,NZ,-45.87,170.5,52.0,60,100,8.01
535,2158767,Mareeba,AU,-17.0,145.43,77.58,54,40,17.22
536,1489209,Troitskoye,RU,52.98,84.68,66.63,89,27,11.3
537,5919850,Chapais,CA,49.78,-74.85,64.4,93,90,10.29
538,1502066,Krasnoshchekovo,RU,51.67,82.73,71.1,75,0,12.95
539,3435910,Buenos Aires,AR,-34.61,-58.38,46.33,51,0,6.93
540,60019,Eyl,SO,7.98,49.82,77.43,59,91,21.07
541,4564133,Dorado,PR,18.46,-66.27,81.86,83,40,13.87
542,1715015,Dicabisagan,PH,17.08,122.42,88.36,61,73,6.31
543,122285,Neyshabur,IR,36.21,58.8,74.86,31,7,1.03
544,3598787,Champerico,GT,14.3,-91.92,81.66,69,89,0.89
545,3685702,Cravo Norte,CO,6.3,-70.2,72.82,94,100,4.65
546,1701054,Marawi,PH,8.0,124.29,82.99,76,99,5.01
547,3465038,Cuiabá,BR,-15.6,-56.1,78.8,41,73,3.36
548,2332453,Lagos,NG,6.58,3.75,77.0,88,40,3.36
549,553099,Kantemirovka,RU,49.71,39.86,57.33,70,8,2.82
